Satellite-Satellite111-Sensor-Sensor2-Receiver-Receiver7-To-Satellite-gps-01_svn63_Access.csv

No Access Found


"Access","Start Time (UTCG)","Stop Time (UTCG)","Duration (sec)"
1,27 Nov 2024 11:00:00.000,27 Nov 2024 11:33:21.764,2001.764
2,27 Nov 2024 12:22:44.581,27 Nov 2024 13:24:41.982,3717.402
3,27 Nov 2024 14:13:49.962,27 Nov 2024 15:15:46.059,3716.098
4,27 Nov 2024 16:04:57.074,27 Nov 2024 17:07:21.835,3744.761
5,27 Nov 2024 17:56:51.000,27 Nov 2024 18:59:07.829,3736.829
6,27 Nov 2024 19:48:57.550,27 Nov 2024 20:51:10.455,3732.905
7,27 Nov 2024 21:41:03.120,27 Nov 2024 22:43:36.056,3752.936
8,27 Nov 2024 23:33:09.218,28 Nov 2024 00:35:21.249,3732.030
9,28 Nov 2024 01:24:35.294,28 Nov 2024 02:26:26.880,3711.586
10,28 Nov 2024 03:15:35.622,28 Nov 2024 04:17:47.742,3732.120
11,28 Nov 2024 05:07:07.461,28 Nov 2024 06:09:29.205,3741.745
12,28 Nov 2024 06:59:12.627,28 Nov 2024 08:01:24.013,3731.386
13,28 Nov 2024 08:51:20.058,28 Nov 2024 09:53:45.416,3745.358
14,28 Nov 2024 10:43:28.085,28 Nov 2024 11:45:50.929,3742.844
15,28 Nov 2024 12:35:12.648,28 Nov 2024 13:37:09.089,3716.441
16,28 Nov 2024 14:26:19.772,28 Nov 2024 15:28:20.604,3720.831
17,28 Nov 2024 16:17:33.394,28 Nov 2024 17:19:52.553,3739.160
18,28 Nov 2024 18:09:25.914,28 Nov 2024 19:11:40.544,3734.630
19,28 Nov 2024 20:01:35.835,28 Nov 2024 21:03:54.068,3738.233
20,28 Nov 2024 21:53:45.108,28 Nov 2024 22:56:11.770,3746.662
21,28 Nov 2024 23:45:41.785,29 Nov 2024 00:47:47.820,3726.035
22,29 Nov 2024 01:37:03.135,29 Nov 2024 02:38:58.652,3715.517
23,29 Nov 2024 03:28:08.838,29 Nov 2024 04:30:20.400,3731.561
24,29 Nov 2024 05:19:42.920,29 Nov 2024 06:22:00.003,3737.083
25,29 Nov 2024 07:11:49.111,29 Nov 2024 08:14:04.027,3734.916
26,29 Nov 2024 09:04:01.029,29 Nov 2024 10:06:26.039,3745.011
27,29 Nov 2024 10:56:04.888,29 Nov 2024 11:58:20.370,3735.482
28,29 Nov 2024 12:47:41.553,29 Nov 2024 13:49:38.273,3716.720
29,29 Nov 2024 14:38:49.817,29 Nov 2024 15:40:53.322,3723.506
30,29 Nov 2024 16:30:07.669,29 Nov 2024 17:32:23.628,3735.960
31,29 Nov 2024 18:22:02.002,29 Nov 2024 19:24:16.664,3734.662
32,29 Nov 2024 20:14:14.992,29 Nov 2024 21:16:36.115,3741.123
33,29 Nov 2024 22:06:24.042,29 Nov 2024 23:08:45.975,3741.934
34,29 Nov 2024 23:58:13.829,30 Nov 2024 01:00:16.449,3722.620
35,30 Nov 2024 01:49:31.742,30 Nov 2024 02:51:29.856,3718.114
36,30 Nov 2024 03:40:40.435,30 Nov 2024 04:42:52.161,3731.726
37,30 Nov 2024 05:32:18.484,30 Nov 2024 06:34:33.770,3735.286
38,30 Nov 2024 07:24:27.204,30 Nov 2024 08:26:44.505,3737.301
39,30 Nov 2024 09:16:39.960,30 Nov 2024 10:19:04.459,3744.499

"Min Duration",1,27 Nov 2024 11:00:00.000,27 Nov 2024 11:33:21.764,2001.764
"Max Duration",7,27 Nov 2024 21:41:03.120,27 Nov 2024 22:43:36.056,3752.936
"Mean Duration",,,,3688.328
"Total Duration",,,,143844.774


"Access","Start Time (UTCG)","Stop Time (UTCG)","Duration (sec)"
1,27 Nov 2024 11:00:00.000,27 Nov 2024 11:20:18.845,1218.845
2,27 Nov 2024 12:09:39.046,27 Nov 2024 13:17:20.612,4061.566
3,27 Nov 2024 14:06:00.797,27 Nov 2024 15:06:31.991,3631.194
4,27 Nov 2024 15:54:08.305,27 Nov 2024 16:55:24.195,3675.890
5,27 Nov 2024 17:44:15.447,27 Nov 2024 18:52:34.122,4098.676
6,27 Nov 2024 19:41:31.185,27 Nov 2024 20:42:52.120,3680.936
7,27 Nov 2024 21:30:13.825,27 Nov 2024 22:30:24.188,3610.363
8,27 Nov 2024 23:18:27.051,28 Nov 2024 00:26:07.929,4060.878
9,28 Nov 2024 01:15:55.460,28 Nov 2024 02:18:57.011,3781.551
10,28 Nov 2024 03:06:33.516,28 Nov 2024 04:06:14.136,3580.620
11,28 Nov 2024 04:54:02.938,28 Nov 2024 06:00:22.505,3979.567
12,28 Nov 2024 06:50:25.673,28 Nov 2024 07:55:13.943,3888.271
13,28 Nov 2024 08:42:45.055,28 Nov 2024 09:42:10.299,3565.244
14,28 Nov 2024 10:29:29.223,28 Nov 2024 11:33:26.694,3837.471
15,28 Nov 2024 12:23:18.444,28 Nov 2024 13:30:45.236,4046.792
16,28 Nov 2024 14:18:45.201,28 Nov 2024 15:18:25.258,3580.056
17,28 Nov 2024 16:05:45.173,28 Nov 2024 17:08:02.605,3737.432
18,28 Nov 2024 17:57:19.461,28 Nov 2024 19:06:26.662,4147.201
19,28 Nov 2024 19:54:37.993,28 Nov 2024 20:54:50.502,3612.510
20,28 Nov 2024 21:41:52.779,28 Nov 2024 22:42:30.878,3638.099
21,28 Nov 2024 23:30:44.530,29 Nov 2024 00:40:33.219,4188.689
22,29 Nov 2024 01:29:40.481,29 Nov 2024 02:31:10.531,3690.050
23,29 Nov 2024 03:18:22.776,29 Nov 2024 04:18:08.072,3585.296
24,29 Nov 2024 05:05:55.867,29 Nov 2024 06:14:53.737,4137.870
25,29 Nov 2024 07:04:35.399,29 Nov 2024 08:07:42.461,3787.062
26,29 Nov 2024 08:54:44.981,29 Nov 2024 09:53:53.320,3548.339
27,29 Nov 2024 10:41:02.770,29 Nov 2024 11:47:22.465,3979.694
28,29 Nov 2024 12:37:41.103,29 Nov 2024 13:43:43.675,3962.572
29,29 Nov 2024 14:31:06.262,29 Nov 2024 15:30:08.791,3542.529
30,29 Nov 2024 16:17:14.182,29 Nov 2024 17:21:17.646,3843.464
31,29 Nov 2024 18:11:14.301,29 Nov 2024 19:19:54.679,4120.378
32,29 Nov 2024 20:07:19.765,29 Nov 2024 21:06:35.411,3555.646
33,29 Nov 2024 21:53:20.120,29 Nov 2024 22:54:56.136,3696.016
34,29 Nov 2024 23:43:36.343,30 Nov 2024 00:54:50.994,4274.651
35,30 Nov 2024 01:43:00.556,30 Nov 2024 02:43:05.986,3605.430
36,30 Nov 2024 03:29:56.894,30 Nov 2024 04:30:09.982,3613.088
37,30 Nov 2024 05:18:05.919,30 Nov 2024 06:29:46.978,4301.059
38,30 Nov 2024 07:18:30.095,30 Nov 2024 08:19:48.897,3678.802
39,30 Nov 2024 09:06:26.958,30 Nov 2024 10:05:35.589,3548.631
40,30 Nov 2024 10:52:38.847,30 Nov 2024 11:00:00.000,441.153

"Min Duration",40,30 Nov 2024 10:52:38.847,30 Nov 2024 11:00:00.000,441.153
"Max Duration",37,30 Nov 2024 05:18:05.919,30 Nov 2024 06:29:46.978,4301.059
"Mean Duration",,,,3663.340
"Total Duration",,,,146533.582


"Access","Start Time (UTCG)","Stop Time (UTCG)","Duration (sec)"
1,27 Nov 2024 11:00:00.000,27 Nov 2024 11:14:10.028,850.028
2,27 Nov 2024 11:56:30.578,27 Nov 2024 12:56:58.066,3627.488
3,27 Nov 2024 13:20:11.728,27 Nov 2024 14:01:55.156,2503.428
4,27 Nov 2024 14:11:09.797,27 Nov 2024 15:16:04.177,3894.379
5,27 Nov 2024 15:58:01.872,27 Nov 2024 16:52:20.393,3258.521
6,27 Nov 2024 17:35:02.209,27 Nov 2024 18:31:50.639,3408.430
7,27 Nov 2024 19:06:13.259,27 Nov 2024 20:55:12.241,6538.982
8,27 Nov 2024 21:36:11.237,27 Nov 2024 22:30:38.608,3267.370
9,27 Nov 2024 23:13:30.678,28 Nov 2024 00:08:55.351,3324.674
10,28 Nov 2024 00:46:57.974,28 Nov 2024 02:34:59.426,6481.452
11,28 Nov 2024 03:14:09.544,28 Nov 2024 04:09:07.290,3297.745
12,28 Nov 2024 04:51:56.262,28 Nov 2024 05:46:30.473,3274.211
13,28 Nov 2024 06:26:43.371,28 Nov 2024 08:16:04.482,6561.111
14,28 Nov 2024 08:51:57.351,28 Nov 2024 09:47:41.957,3344.606
15,28 Nov 2024 10:30:21.973,28 Nov 2024 11:24:29.031,3247.058
16,28 Nov 2024 12:05:45.668,28 Nov 2024 13:59:54.111,6848.443
17,28 Nov 2024 14:29:09.933,28 Nov 2024 15:26:30.971,3441.038
18,28 Nov 2024 16:08:43.721,28 Nov 2024 17:02:39.509,3235.788
19,28 Nov 2024 17:44:39.031,28 Nov 2024 18:42:59.348,3500.317
20,28 Nov 2024 19:07:59.630,28 Nov 2024 19:51:14.344,2594.714
21,28 Nov 2024 20:03:55.466,28 Nov 2024 21:05:31.523,3696.058
22,28 Nov 2024 21:47:06.428,28 Nov 2024 22:40:58.583,3232.155
23,28 Nov 2024 23:23:21.014,29 Nov 2024 00:19:22.568,3361.554
24,29 Nov 2024 00:52:41.338,29 Nov 2024 02:44:58.570,6737.232
25,29 Nov 2024 03:25:23.078,29 Nov 2024 04:19:27.988,3244.911
26,29 Nov 2024 05:01:59.632,29 Nov 2024 05:56:45.545,3285.913
27,29 Nov 2024 06:34:26.138,29 Nov 2024 08:25:05.330,6639.192
28,29 Nov 2024 09:03:38.680,29 Nov 2024 09:58:02.637,3263.957
29,29 Nov 2024 10:40:35.190,29 Nov 2024 11:34:41.609,3246.419
30,29 Nov 2024 12:14:19.329,29 Nov 2024 14:06:26.711,6727.382
31,29 Nov 2024 14:41:42.279,29 Nov 2024 15:36:49.951,3307.672
32,29 Nov 2024 16:19:07.710,29 Nov 2024 17:12:51.943,3224.233
33,29 Nov 2024 17:53:48.091,29 Nov 2024 18:57:27.172,3819.081
34,29 Nov 2024 19:01:47.128,29 Nov 2024 19:50:39.571,2932.443
35,29 Nov 2024 20:19:29.449,29 Nov 2024 21:15:45.307,3375.858
36,29 Nov 2024 21:57:40.420,29 Nov 2024 22:51:11.770,3211.350
37,29 Nov 2024 23:32:49.634,30 Nov 2024 00:29:55.721,3426.087
38,30 Nov 2024 00:54:47.419,30 Nov 2024 01:38:48.619,2641.200
39,30 Nov 2024 01:56:14.099,30 Nov 2024 02:55:00.454,3526.355
40,30 Nov 2024 03:36:09.300,30 Nov 2024 04:29:41.974,3212.674
41,30 Nov 2024 05:11:45.227,30 Nov 2024 06:06:54.652,3309.425
42,30 Nov 2024 06:40:15.990,30 Nov 2024 08:34:38.539,6862.549
43,30 Nov 2024 09:14:39.563,30 Nov 2024 10:08:16.783,3217.220
44,30 Nov 2024 10:50:32.147,30 Nov 2024 11:00:00.000,567.853

"Min Duration",44,30 Nov 2024 10:50:32.147,30 Nov 2024 11:00:00.000,567.853
"Max Duration",42,30 Nov 2024 06:40:15.990,30 Nov 2024 08:34:38.539,6862.549
"Mean Duration",,,,3785.649
"Total Duration",,,,166568.554


"Access","Start Time (UTCG)","Stop Time (UTCG)","Duration (sec)"
1,27 Nov 2024 11:28:30.930,27 Nov 2024 12:33:22.513,3891.582
2,27 Nov 2024 13:21:27.414,27 Nov 2024 14:21:27.615,3600.201
3,27 Nov 2024 15:09:11.008,27 Nov 2024 16:12:17.262,3786.255
4,27 Nov 2024 17:01:52.329,27 Nov 2024 18:08:30.520,3998.191
5,27 Nov 2024 18:57:06.008,27 Nov 2024 19:57:29.158,3623.149
6,27 Nov 2024 20:45:16.661,27 Nov 2024 21:47:11.342,3714.681
7,27 Nov 2024 22:36:25.228,27 Nov 2024 23:43:58.611,4053.383
8,28 Nov 2024 00:32:46.840,28 Nov 2024 01:33:45.201,3658.362
9,28 Nov 2024 02:21:15.808,28 Nov 2024 03:21:57.270,3641.461
10,28 Nov 2024 04:10:21.804,28 Nov 2024 05:17:56.098,4054.293
11,28 Nov 2024 06:07:28.249,28 Nov 2024 07:09:46.272,3738.023
12,28 Nov 2024 07:57:29.779,28 Nov 2024 08:57:33.434,3603.655
13,28 Nov 2024 09:45:42.596,28 Nov 2024 10:52:27.092,4004.496
14,28 Nov 2024 11:42:20.252,28 Nov 2024 12:46:04.290,3824.038
15,28 Nov 2024 13:33:40.466,28 Nov 2024 14:33:18.630,3578.165
16,28 Nov 2024 15:20:53.108,28 Nov 2024 16:25:37.623,3884.516
17,28 Nov 2024 17:15:36.607,28 Nov 2024 18:21:40.315,3963.709
18,28 Nov 2024 19:09:40.775,28 Nov 2024 20:09:23.067,3582.291
19,28 Nov 2024 20:56:56.736,28 Nov 2024 22:00:04.422,3787.686
20,28 Nov 2024 22:49:44.815,28 Nov 2024 23:57:32.566,4067.751
21,29 Nov 2024 00:45:40.303,29 Nov 2024 01:45:41.942,3601.639
22,29 Nov 2024 02:32:55.102,29 Nov 2024 03:34:15.829,3680.726
23,29 Nov 2024 04:22:57.293,29 Nov 2024 05:32:02.189,4144.896
24,29 Nov 2024 06:20:55.056,29 Nov 2024 07:21:55.611,3660.554
25,29 Nov 2024 08:09:17.325,29 Nov 2024 09:09:36.209,3618.885
26,29 Nov 2024 09:57:50.561,29 Nov 2024 11:06:47.790,4137.229
27,29 Nov 2024 11:56:10.781,29 Nov 2024 12:58:25.681,3734.900
28,29 Nov 2024 13:45:36.105,29 Nov 2024 14:45:06.921,3570.816
29,29 Nov 2024 15:32:36.047,29 Nov 2024 16:39:41.889,4025.842
30,29 Nov 2024 17:29:49.654,29 Nov 2024 18:34:26.836,3877.183
31,29 Nov 2024 19:21:54.648,29 Nov 2024 20:21:09.429,3554.781
32,29 Nov 2024 21:08:31.703,29 Nov 2024 22:13:37.432,3905.729
33,29 Nov 2024 23:03:48.392,30 Nov 2024 00:10:43.365,4014.973
34,30 Nov 2024 00:58:11.155,30 Nov 2024 01:57:27.227,3556.073
35,30 Nov 2024 02:44:24.808,30 Nov 2024 03:46:58.503,3753.695
36,30 Nov 2024 04:36:12.712,30 Nov 2024 05:45:54.970,4182.257
37,30 Nov 2024 06:33:58.330,30 Nov 2024 07:33:49.218,3590.888
38,30 Nov 2024 08:20:51.622,30 Nov 2024 09:21:51.726,3660.103
39,30 Nov 2024 10:10:23.449,30 Nov 2024 11:00:00.000,2976.551

"Min Duration",39,30 Nov 2024 10:10:23.449,30 Nov 2024 11:00:00.000,2976.551
"Max Duration",36,30 Nov 2024 04:36:12.712,30 Nov 2024 05:45:54.970,4182.257
"Mean Duration",,,,3777.016
"Total Duration",,,,147303.607


"Access","Start Time (UTCG)","Stop Time (UTCG)","Duration (sec)"
1,27 Nov 2024 11:00:00.000,27 Nov 2024 11:03:00.872,180.872
2,27 Nov 2024 11:52:38.267,27 Nov 2024 12:54:50.745,3732.477
3,27 Nov 2024 13:44:24.095,27 Nov 2024 14:46:46.510,3742.415
4,27 Nov 2024 15:36:18.019,27 Nov 2024 16:38:25.779,3727.760
5,27 Nov 2024 17:27:56.434,27 Nov 2024 18:30:02.040,3725.606
6,27 Nov 2024 19:19:27.403,27 Nov 2024 20:21:45.753,3738.349
7,27 Nov 2024 21:11:14.057,27 Nov 2024 22:13:26.057,3732.000
8,27 Nov 2024 23:03:03.575,28 Nov 2024 00:05:11.574,3727.999
9,28 Nov 2024 00:54:47.527,28 Nov 2024 01:57:07.269,3739.742
10,28 Nov 2024 02:46:38.704,28 Nov 2024 03:48:52.739,3734.035
11,28 Nov 2024 04:38:25.193,28 Nov 2024 05:40:29.182,3723.989
12,28 Nov 2024 06:29:57.211,28 Nov 2024 07:32:10.721,3733.509
13,28 Nov 2024 08:21:35.959,28 Nov 2024 09:23:51.384,3735.425
14,28 Nov 2024 10:13:26.062,28 Nov 2024 11:15:33.571,3727.509
15,28 Nov 2024 12:05:12.166,28 Nov 2024 13:07:27.472,3735.305
16,28 Nov 2024 13:56:59.919,28 Nov 2024 14:59:17.888,3737.969
17,28 Nov 2024 15:48:50.154,28 Nov 2024 16:50:56.233,3726.079
18,28 Nov 2024 17:40:27.445,28 Nov 2024 18:42:36.367,3728.922
19,28 Nov 2024 19:32:01.280,28 Nov 2024 20:34:17.616,3736.335
20,28 Nov 2024 21:23:47.584,28 Nov 2024 22:25:56.926,3729.342
21,28 Nov 2024 23:15:35.986,29 Nov 2024 00:17:47.134,3731.148
22,29 Nov 2024 01:07:22.262,29 Nov 2024 02:09:41.606,3739.343
23,29 Nov 2024 02:59:13.045,29 Nov 2024 04:01:23.195,3730.149
24,29 Nov 2024 04:50:56.033,29 Nov 2024 05:53:01.766,3725.732
25,29 Nov 2024 06:42:28.930,29 Nov 2024 07:44:44.266,3735.336
26,29 Nov 2024 08:34:10.264,29 Nov 2024 09:36:22.619,3732.355
27,29 Nov 2024 10:25:58.889,29 Nov 2024 11:28:06.891,3728.002
28,29 Nov 2024 12:17:44.851,29 Nov 2024 13:20:03.148,3738.298
29,29 Nov 2024 14:09:35.028,29 Nov 2024 15:11:50.363,3735.335
30,29 Nov 2024 16:01:22.810,29 Nov 2024 17:03:27.319,3724.509
31,29 Nov 2024 17:52:57.310,29 Nov 2024 18:55:09.782,3732.472
32,29 Nov 2024 19:44:34.495,29 Nov 2024 20:46:50.538,3736.042
33,29 Nov 2024 21:36:21.994,29 Nov 2024 22:38:28.917,3726.924
34,29 Nov 2024 23:28:07.514,30 Nov 2024 00:30:21.946,3734.432
35,30 Nov 2024 01:19:56.022,30 Nov 2024 02:22:16.572,3740.549
36,30 Nov 2024 03:11:48.070,30 Nov 2024 04:13:54.601,3726.530
37,30 Nov 2024 05:03:25.980,30 Nov 2024 06:05:33.621,3727.641
38,30 Nov 2024 06:54:59.530,30 Nov 2024 07:57:18.463,3738.933
39,30 Nov 2024 08:46:45.638,30 Nov 2024 09:48:55.228,3729.590
40,30 Nov 2024 10:38:31.292,30 Nov 2024 11:00:00.000,1288.708

"Min Duration",1,27 Nov 2024 11:00:00.000,27 Nov 2024 11:03:00.872,180.872
"Max Duration",3,27 Nov 2024 13:44:24.095,27 Nov 2024 14:46:46.510,3742.415
"Mean Duration",,,,3582.442
"Total Duration",,,,143297.667


"Access","Start Time (UTCG)","Stop Time (UTCG)","Duration (sec)"
1,27 Nov 2024 11:00:00.000,27 Nov 2024 11:28:00.488,1680.488
2,27 Nov 2024 12:08:33.691,27 Nov 2024 13:00:06.160,3092.469
3,27 Nov 2024 13:39:38.577,27 Nov 2024 14:30:51.927,3073.350
4,27 Nov 2024 14:58:02.747,27 Nov 2024 15:43:46.495,2743.748
5,27 Nov 2024 16:15:23.142,27 Nov 2024 17:07:11.248,3108.106
6,27 Nov 2024 17:47:26.270,27 Nov 2024 18:39:14.541,3108.272
7,27 Nov 2024 19:19:15.541,27 Nov 2024 20:11:24.457,3128.916
8,27 Nov 2024 20:42:27.324,27 Nov 2024 21:29:22.923,2815.599
9,27 Nov 2024 21:56:08.844,27 Nov 2024 22:47:52.746,3103.902
10,27 Nov 2024 23:27:03.200,28 Nov 2024 00:18:39.278,3096.079
11,28 Nov 2024 00:59:20.653,28 Nov 2024 01:50:53.927,3093.275
12,28 Nov 2024 02:24:55.631,28 Nov 2024 03:11:37.335,2801.704
13,28 Nov 2024 03:36:26.252,28 Nov 2024 04:27:22.628,3056.377
14,28 Nov 2024 05:05:56.930,28 Nov 2024 05:57:43.157,3106.227
15,28 Nov 2024 06:38:28.197,28 Nov 2024 07:30:28.653,3120.456
16,28 Nov 2024 08:06:43.434,28 Nov 2024 08:56:49.841,3006.407
17,28 Nov 2024 09:19:34.374,28 Nov 2024 10:09:25.326,2990.952
18,28 Nov 2024 10:45:39.707,28 Nov 2024 11:37:25.587,3105.880
19,28 Nov 2024 12:18:15.789,28 Nov 2024 13:09:47.393,3091.603
20,28 Nov 2024 13:47:58.041,28 Nov 2024 14:38:11.736,3013.694
21,28 Nov 2024 15:02:04.187,28 Nov 2024 15:49:43.247,2859.060
22,28 Nov 2024 16:24:43.718,28 Nov 2024 17:16:30.753,3107.034
23,28 Nov 2024 17:57:11.191,28 Nov 2024 18:49:00.971,3109.780
24,28 Nov 2024 19:28:04.983,28 Nov 2024 20:20:00.703,3115.720
25,28 Nov 2024 20:47:04.101,28 Nov 2024 21:33:55.694,2811.592
26,28 Nov 2024 22:04:51.098,28 Nov 2024 22:56:44.143,3113.045
27,28 Nov 2024 23:36:50.119,29 Nov 2024 00:28:22.496,3092.377
28,29 Nov 2024 01:08:31.175,29 Nov 2024 01:59:57.084,3085.909
29,29 Nov 2024 02:30:17.641,29 Nov 2024 03:15:39.665,2722.024
30,29 Nov 2024 03:44:27.063,29 Nov 2024 04:35:59.614,3092.550
31,29 Nov 2024 05:15:42.579,29 Nov 2024 06:07:27.188,3104.608
32,29 Nov 2024 06:47:51.690,29 Nov 2024 07:39:57.004,3125.314
33,29 Nov 2024 08:13:25.588,29 Nov 2024 09:01:29.003,2883.415
34,29 Nov 2024 09:25:53.295,29 Nov 2024 10:17:08.398,3075.103
35,29 Nov 2024 10:55:20.283,29 Nov 2024 11:47:00.000,3099.717
36,29 Nov 2024 12:27:50.575,29 Nov 2024 13:19:23.556,3092.981
37,29 Nov 2024 13:55:30.027,29 Nov 2024 14:43:49.912,2899.885
38,29 Nov 2024 15:07:05.055,29 Nov 2024 15:56:53.604,2988.549
39,29 Nov 2024 16:34:17.263,29 Nov 2024 17:26:02.237,3104.974
40,29 Nov 2024 18:06:51.081,29 Nov 2024 18:58:45.966,3114.885
41,29 Nov 2024 19:36:22.565,29 Nov 2024 20:27:33.693,3071.129
42,29 Nov 2024 20:51:12.477,29 Nov 2024 21:39:41.032,2908.554
43,29 Nov 2024 22:14:04.766,29 Nov 2024 23:05:56.194,3111.429
44,29 Nov 2024 23:46:34.794,30 Nov 2024 00:38:07.116,3092.322
45,30 Nov 2024 01:17:19.184,30 Nov 2024 02:08:20.443,3061.259
46,30 Nov 2024 02:34:31.972,30 Nov 2024 03:20:35.295,2763.323
47,30 Nov 2024 03:53:18.582,30 Nov 2024 04:45:02.755,3104.173
48,30 Nov 2024 05:25:27.839,30 Nov 2024 06:17:14.496,3106.658
49,30 Nov 2024 06:56:59.778,30 Nov 2024 07:49:06.951,3127.173
50,30 Nov 2024 08:18:52.747,30 Nov 2024 09:05:37.344,2804.597
51,30 Nov 2024 09:33:43.495,30 Nov 2024 10:25:34.382,3110.887

"Min Duration",1,27 Nov 2024 11:00:00.000,27 Nov 2024 11:28:00.488,1680.488
"Max Duration",7,27 Nov 2024 19:19:15.541,27 Nov 2024 20:11:24.457,3128.916
"Mean Duration",,,,3003.873
"Total Duration",,,,153197.529


"Access","Start Time (UTCG)","Stop Time (UTCG)","Duration (sec)"
1,27 Nov 2024 11:00:00.000,27 Nov 2024 11:45:14.445,2714.445
2,27 Nov 2024 12:31:40.339,27 Nov 2024 13:33:14.543,3694.204
3,27 Nov 2024 14:21:45.400,27 Nov 2024 15:34:33.405,4368.005
4,27 Nov 2024 16:21:45.031,27 Nov 2024 17:21:35.391,3590.360
5,27 Nov 2024 18:08:04.148,27 Nov 2024 19:07:51.893,3587.745
6,27 Nov 2024 19:55:50.142,27 Nov 2024 21:08:44.695,4374.553
7,27 Nov 2024 21:57:23.810,27 Nov 2024 22:58:33.668,3669.859
8,27 Nov 2024 23:45:08.621,28 Nov 2024 00:44:16.181,3547.560
9,28 Nov 2024 01:31:25.368,28 Nov 2024 02:41:36.771,4211.403
10,28 Nov 2024 03:30:58.016,28 Nov 2024 04:34:40.868,3822.852
11,28 Nov 2024 05:21:18.339,28 Nov 2024 06:20:01.057,3522.718
12,28 Nov 2024 07:07:05.427,28 Nov 2024 08:13:41.096,3995.669
13,28 Nov 2024 09:04:35.260,28 Nov 2024 10:11:07.146,3991.886
14,28 Nov 2024 10:58:07.183,28 Nov 2024 11:56:55.451,3528.268
15,28 Nov 2024 12:43:45.424,28 Nov 2024 13:47:28.474,3823.050
16,28 Nov 2024 14:37:04.028,28 Nov 2024 15:46:29.032,4165.004
17,28 Nov 2024 16:33:39.266,28 Nov 2024 17:33:02.429,3563.163
18,28 Nov 2024 18:19:53.627,28 Nov 2024 19:21:13.959,3680.333
19,28 Nov 2024 20:10:25.457,28 Nov 2024 21:21:36.994,4271.537
20,28 Nov 2024 22:09:45.298,28 Nov 2024 23:09:57.859,3612.562
21,28 Nov 2024 23:56:50.336,29 Nov 2024 00:57:04.156,3613.820
22,29 Nov 2024 01:45:03.565,29 Nov 2024 02:55:30.382,4226.816
23,29 Nov 2024 03:44:07.208,29 Nov 2024 04:46:01.228,3714.020
24,29 Nov 2024 05:32:55.537,29 Nov 2024 06:32:17.327,3561.790
25,29 Nov 2024 07:20:03.124,29 Nov 2024 08:28:32.484,4109.360
26,29 Nov 2024 09:18:46.741,29 Nov 2024 10:22:35.477,3828.736
27,29 Nov 2024 11:09:45.806,29 Nov 2024 12:08:56.085,3550.278
28,29 Nov 2024 12:56:15.272,29 Nov 2024 14:01:59.273,3944.001
29,29 Nov 2024 14:51:50.597,29 Nov 2024 15:58:10.039,3979.442
30,29 Nov 2024 16:45:25.923,29 Nov 2024 17:44:45.115,3559.192
31,29 Nov 2024 18:32:02.194,29 Nov 2024 19:35:09.870,3787.676
32,29 Nov 2024 20:25:18.127,29 Nov 2024 21:33:50.814,4112.687
33,29 Nov 2024 22:21:47.520,29 Nov 2024 23:21:34.712,3587.192
34,30 Nov 2024 00:08:46.726,30 Nov 2024 01:10:21.711,3694.985
35,30 Nov 2024 01:59:12.033,30 Nov 2024 03:08:25.049,4153.016
36,30 Nov 2024 03:56:38.026,30 Nov 2024 04:57:30.154,3652.128
37,30 Nov 2024 05:44:42.721,30 Nov 2024 06:44:59.964,3617.244
38,30 Nov 2024 07:33:34.189,30 Nov 2024 08:42:28.601,4134.412
39,30 Nov 2024 09:31:58.985,30 Nov 2024 10:34:07.662,3728.677

"Min Duration",1,27 Nov 2024 11:00:00.000,27 Nov 2024 11:45:14.445,2714.445
"Max Duration",6,27 Nov 2024 19:55:50.142,27 Nov 2024 21:08:44.695,4374.553
"Mean Duration",,,,3802.324
"Total Duration",,,,148290.646


"Access","Start Time (UTCG)","Stop Time (UTCG)","Duration (sec)"
1,27 Nov 2024 11:00:00.000,27 Nov 2024 11:13:14.475,794.475
2,27 Nov 2024 11:56:30.405,27 Nov 2024 12:52:01.827,3331.422
3,27 Nov 2024 13:32:21.600,27 Nov 2024 15:16:54.580,6272.980
4,27 Nov 2024 15:55:18.676,27 Nov 2024 16:51:34.547,3375.871
5,27 Nov 2024 17:34:44.118,27 Nov 2024 18:29:31.734,3287.616
6,27 Nov 2024 19:11:09.025,27 Nov 2024 20:58:32.984,6443.959
7,27 Nov 2024 21:32:19.181,27 Nov 2024 22:30:04.102,3464.921
8,27 Nov 2024 23:12:56.720,28 Nov 2024 00:07:26.088,3269.368
9,28 Nov 2024 00:49:40.806,28 Nov 2024 01:53:28.685,3827.879
10,28 Nov 2024 02:08:51.500,28 Nov 2024 02:47:52.965,2341.465
11,28 Nov 2024 03:06:36.917,28 Nov 2024 04:08:46.154,3729.237
12,28 Nov 2024 04:51:05.792,28 Nov 2024 05:45:28.302,3262.510
13,28 Nov 2024 06:28:11.928,28 Nov 2024 07:26:06.335,3474.407
14,28 Nov 2024 07:58:12.993,28 Nov 2024 09:47:41.118,6568.124
15,28 Nov 2024 10:29:13.739,28 Nov 2024 11:23:43.354,3269.615
16,28 Nov 2024 12:06:36.666,28 Nov 2024 13:02:37.528,3360.862
17,28 Nov 2024 13:39:52.966,28 Nov 2024 15:27:11.122,6438.156
18,28 Nov 2024 16:07:10.925,28 Nov 2024 17:02:04.846,3293.922
19,28 Nov 2024 17:45:02.088,28 Nov 2024 18:39:56.410,3294.321
20,28 Nov 2024 19:19:45.151,28 Nov 2024 21:07:25.317,6460.166
21,28 Nov 2024 21:45:02.524,28 Nov 2024 22:40:35.346,3332.822
22,28 Nov 2024 23:23:24.284,29 Nov 2024 00:17:47.480,3263.196
23,29 Nov 2024 00:58:50.459,29 Nov 2024 02:50:15.000,6684.541
24,29 Nov 2024 03:22:16.957,29 Nov 2024 04:19:16.762,3419.806
25,29 Nov 2024 05:01:45.780,29 Nov 2024 05:55:49.054,3243.273
26,29 Nov 2024 06:37:44.519,29 Nov 2024 07:38:30.853,3646.333
27,29 Nov 2024 07:56:30.870,29 Nov 2024 08:37:45.034,2474.165
28,29 Nov 2024 08:58:25.659,29 Nov 2024 09:58:07.988,3582.328
29,29 Nov 2024 10:40:05.593,29 Nov 2024 11:34:04.691,3239.098
30,29 Nov 2024 12:16:24.185,29 Nov 2024 13:13:20.436,3416.251
31,29 Nov 2024 13:44:39.031,29 Nov 2024 15:37:24.072,6765.040
32,29 Nov 2024 16:18:21.377,29 Nov 2024 17:12:27.020,3245.643
33,29 Nov 2024 17:55:03.165,29 Nov 2024 18:50:17.939,3314.774
34,29 Nov 2024 19:26:59.473,29 Nov 2024 21:17:03.301,6603.828
35,29 Nov 2024 21:56:35.537,29 Nov 2024 22:50:58.008,3262.471
36,29 Nov 2024 23:33:35.347,30 Nov 2024 00:28:03.233,3267.887
37,30 Nov 2024 01:07:12.567,30 Nov 2024 02:57:58.466,6645.899
38,30 Nov 2024 03:34:37.264,30 Nov 2024 04:29:38.595,3301.331
39,30 Nov 2024 05:12:08.077,30 Nov 2024 06:06:03.296,3235.219
40,30 Nov 2024 06:46:45.590,30 Nov 2024 08:40:35.667,6830.077
41,30 Nov 2024 09:12:29.909,30 Nov 2024 10:08:26.977,3357.068
42,30 Nov 2024 10:50:37.330,30 Nov 2024 11:00:00.000,562.670

"Min Duration",42,30 Nov 2024 10:50:37.330,30 Nov 2024 11:00:00.000,562.670
"Max Duration",40,30 Nov 2024 06:46:45.590,30 Nov 2024 08:40:35.667,6830.077
"Mean Duration",,,,3958.452
"Total Duration",,,,166254.997


"Access","Start Time (UTCG)","Stop Time (UTCG)","Duration (sec)"
1,27 Nov 2024 11:00:00.000,27 Nov 2024 11:54:24.856,3264.856
2,27 Nov 2024 12:41:49.958,27 Nov 2024 13:43:37.022,3707.064
3,27 Nov 2024 14:32:43.057,27 Nov 2024 15:40:50.227,4087.171
4,27 Nov 2024 16:29:51.300,27 Nov 2024 17:30:43.714,3652.414
5,27 Nov 2024 18:18:22.776,27 Nov 2024 19:19:15.867,3653.092
6,27 Nov 2024 20:07:51.809,27 Nov 2024 21:16:05.129,4093.320
7,27 Nov 2024 22:05:07.972,27 Nov 2024 23:06:58.867,3710.895
8,27 Nov 2024 23:54:17.164,28 Nov 2024 00:54:09.488,3592.324
9,28 Nov 2024 01:41:59.948,28 Nov 2024 02:49:01.488,4021.540
10,28 Nov 2024 03:39:10.656,28 Nov 2024 04:43:02.436,3831.780
11,28 Nov 2024 05:30:47.098,28 Nov 2024 06:30:21.990,3574.892
12,28 Nov 2024 07:18:04.902,28 Nov 2024 08:23:40.088,3935.186
13,28 Nov 2024 09:13:37.105,28 Nov 2024 10:19:15.148,3938.044
14,28 Nov 2024 11:06:45.857,28 Nov 2024 12:06:12.913,3567.056
15,28 Nov 2024 12:53:24.908,28 Nov 2024 13:56:27.318,3782.409
16,28 Nov 2024 14:46:06.220,28 Nov 2024 15:54:29.558,4103.337
17,28 Nov 2024 16:42:46.837,28 Nov 2024 17:42:39.894,3593.057
18,28 Nov 2024 18:30:00.484,28 Nov 2024 19:31:43.084,3702.601
19,28 Nov 2024 20:20:38.247,28 Nov 2024 21:30:07.421,4169.174
20,28 Nov 2024 22:18:24.977,28 Nov 2024 23:19:00.834,3635.857
21,29 Nov 2024 00:05:58.862,29 Nov 2024 01:06:07.115,3608.253
22,29 Nov 2024 01:54:03.188,29 Nov 2024 03:03:32.536,4169.348
23,29 Nov 2024 03:53:10.651,29 Nov 2024 04:55:23.395,3732.745
24,29 Nov 2024 05:42:41.042,29 Nov 2024 06:42:12.321,3571.279
25,29 Nov 2024 07:29:49.912,29 Nov 2024 08:38:02.707,4092.795
26,29 Nov 2024 09:27:51.422,29 Nov 2024 10:31:51.562,3840.140
27,29 Nov 2024 11:18:51.961,29 Nov 2024 12:17:53.818,3541.857
28,29 Nov 2024 13:04:54.596,29 Nov 2024 14:10:00.324,3905.728
29,29 Nov 2024 15:00:19.970,29 Nov 2024 16:07:42.682,4042.711
30,29 Nov 2024 16:55:17.583,29 Nov 2024 17:54:24.698,3547.115
31,29 Nov 2024 18:41:28.716,29 Nov 2024 19:44:40.433,3791.717
32,29 Nov 2024 20:34:11.142,29 Nov 2024 21:43:49.110,4177.968
33,29 Nov 2024 22:31:17.397,29 Nov 2024 23:30:47.905,3570.508
34,30 Nov 2024 00:17:27.720,30 Nov 2024 01:18:17.334,3649.614
35,30 Nov 2024 02:06:31.612,30 Nov 2024 03:18:10.147,4298.536
36,30 Nov 2024 04:06:48.419,30 Nov 2024 05:07:24.305,3635.887
37,30 Nov 2024 05:54:18.458,30 Nov 2024 06:54:07.141,3588.683
38,30 Nov 2024 07:41:46.016,30 Nov 2024 08:53:01.811,4275.795
39,30 Nov 2024 09:42:00.305,30 Nov 2024 10:44:04.317,3724.012

"Min Duration",1,27 Nov 2024 11:00:00.000,27 Nov 2024 11:54:24.856,3264.856
"Max Duration",35,30 Nov 2024 02:06:31.612,30 Nov 2024 03:18:10.147,4298.536
"Mean Duration",,,,3804.635
"Total Duration",,,,148380.760


"Access","Start Time (UTCG)","Stop Time (UTCG)","Duration (sec)"
1,27 Nov 2024 11:42:05.054,27 Nov 2024 12:44:10.643,3725.590
2,27 Nov 2024 13:33:44.551,27 Nov 2024 14:35:59.830,3735.279
3,27 Nov 2024 15:25:26.805,27 Nov 2024 16:27:42.692,3735.886
4,27 Nov 2024 17:17:12.976,27 Nov 2024 18:19:17.804,3724.829
5,27 Nov 2024 19:08:51.518,27 Nov 2024 20:11:04.181,3732.662
6,27 Nov 2024 21:00:34.788,27 Nov 2024 22:02:53.903,3739.115
7,27 Nov 2024 22:52:28.041,27 Nov 2024 23:54:36.289,3728.248
8,28 Nov 2024 00:44:13.149,28 Nov 2024 01:46:23.312,3730.164
9,28 Nov 2024 02:35:52.418,28 Nov 2024 03:38:09.864,3737.446
10,28 Nov 2024 04:27:37.785,28 Nov 2024 05:29:46.069,3728.284
11,28 Nov 2024 06:19:19.968,28 Nov 2024 07:21:27.537,3727.569
12,28 Nov 2024 08:10:59.324,28 Nov 2024 09:13:17.721,3738.397
13,28 Nov 2024 10:02:49.395,28 Nov 2024 11:05:02.160,3732.764
14,28 Nov 2024 11:54:39.653,28 Nov 2024 12:56:46.832,3727.179
15,28 Nov 2024 13:46:19.625,28 Nov 2024 14:48:35.601,3735.977
16,28 Nov 2024 15:38:02.300,28 Nov 2024 16:40:15.123,3732.824
17,28 Nov 2024 17:29:47.185,28 Nov 2024 18:31:52.439,3725.254
18,28 Nov 2024 19:21:25.899,28 Nov 2024 20:23:40.769,3734.870
19,28 Nov 2024 21:13:11.142,28 Nov 2024 22:15:28.249,3737.107
20,28 Nov 2024 23:05:03.886,29 Nov 2024 00:07:11.006,3727.120
21,29 Nov 2024 00:56:47.081,29 Nov 2024 01:58:59.512,3732.430
22,29 Nov 2024 02:48:27.354,29 Nov 2024 03:50:44.127,3736.773
23,29 Nov 2024 04:40:13.312,29 Nov 2024 05:42:19.603,3726.291
24,29 Nov 2024 06:31:53.477,29 Nov 2024 07:34:03.225,3729.748
25,29 Nov 2024 08:23:34.047,29 Nov 2024 09:25:53.721,3739.674
26,29 Nov 2024 10:15:26.558,29 Nov 2024 11:17:36.886,3730.327
27,29 Nov 2024 12:07:14.021,29 Nov 2024 13:09:22.047,3728.026
28,29 Nov 2024 13:58:52.827,29 Nov 2024 15:01:11.312,3738.485
29,29 Nov 2024 15:50:38.523,29 Nov 2024 16:52:49.370,3730.847
30,29 Nov 2024 17:42:21.660,29 Nov 2024 18:44:26.551,3724.892
31,29 Nov 2024 19:33:58.428,29 Nov 2024 20:36:17.131,3738.703
32,29 Nov 2024 21:25:48.051,29 Nov 2024 22:28:04.472,3736.421
33,29 Nov 2024 23:17:40.313,30 Nov 2024 00:19:45.378,3725.065
34,30 Nov 2024 01:09:18.931,30 Nov 2024 02:11:35.090,3736.159
35,30 Nov 2024 03:01:02.431,30 Nov 2024 04:03:20.229,3737.798
36,30 Nov 2024 04:52:49.939,30 Nov 2024 05:54:53.226,3723.286
37,30 Nov 2024 06:44:25.092,30 Nov 2024 07:46:38.176,3733.084
38,30 Nov 2024 08:36:08.551,30 Nov 2024 09:38:31.607,3743.056
39,30 Nov 2024 10:28:05.238,30 Nov 2024 11:00:00.000,1914.762

"Min Duration",39,30 Nov 2024 10:28:05.238,30 Nov 2024 11:00:00.000,1914.762
"Max Duration",38,30 Nov 2024 08:36:08.551,30 Nov 2024 09:38:31.607,3743.056
"Mean Duration",,,,3685.702
"Total Duration",,,,143742.391


"Access","Start Time (UTCG)","Stop Time (UTCG)","Duration (sec)"
1,27 Nov 2024 11:32:53.154,27 Nov 2024 12:27:03.832,3250.678
2,27 Nov 2024 13:06:29.085,27 Nov 2024 14:57:33.197,6664.113
3,27 Nov 2024 15:34:03.250,27 Nov 2024 16:28:57.523,3294.274
4,27 Nov 2024 17:11:28.430,27 Nov 2024 18:05:23.638,3235.208
5,27 Nov 2024 18:46:04.236,27 Nov 2024 20:39:49.028,6824.792
6,27 Nov 2024 21:11:11.760,27 Nov 2024 22:07:44.563,3392.804
7,27 Nov 2024 22:49:52.921,27 Nov 2024 23:43:44.098,3231.177
8,28 Nov 2024 00:25:33.133,28 Nov 2024 01:24:14.160,3521.028
9,28 Nov 2024 01:46:20.539,28 Nov 2024 02:28:04.868,2504.329
10,28 Nov 2024 02:46:39.005,28 Nov 2024 03:46:25.458,3586.453
11,28 Nov 2024 04:28:15.160,28 Nov 2024 05:22:06.270,3231.110
12,28 Nov 2024 06:04:26.026,28 Nov 2024 07:01:11.299,3405.274
13,28 Nov 2024 07:32:19.594,28 Nov 2024 09:25:29.475,6789.881
14,28 Nov 2024 10:06:18.400,28 Nov 2024 11:00:33.529,3255.130
15,28 Nov 2024 11:43:13.010,28 Nov 2024 12:38:27.719,3314.708
16,28 Nov 2024 13:15:57.550,28 Nov 2024 15:04:41.484,6523.934
17,28 Nov 2024 15:44:18.921,28 Nov 2024 16:38:56.763,3277.842
18,28 Nov 2024 17:21:47.881,28 Nov 2024 18:16:30.898,3283.017
19,28 Nov 2024 18:56:06.031,28 Nov 2024 20:44:45.590,6519.559
20,28 Nov 2024 21:21:43.158,28 Nov 2024 22:17:29.353,3346.196
21,28 Nov 2024 23:00:11.714,28 Nov 2024 23:54:31.245,3259.531
22,29 Nov 2024 00:35:54.243,29 Nov 2024 02:26:56.070,6661.827
23,29 Nov 2024 02:58:30.466,29 Nov 2024 03:55:55.260,3444.794
24,29 Nov 2024 04:38:33.156,29 Nov 2024 05:32:44.126,3250.970
25,29 Nov 2024 06:14:51.556,29 Nov 2024 07:16:39.021,3707.465
26,29 Nov 2024 07:34:03.445,29 Nov 2024 08:14:52.510,2449.066
27,29 Nov 2024 08:32:16.938,29 Nov 2024 09:34:35.586,3738.648
28,29 Nov 2024 10:16:36.557,29 Nov 2024 11:10:57.781,3261.224
29,29 Nov 2024 11:53:40.584,29 Nov 2024 12:50:53.350,3432.765
30,29 Nov 2024 13:24:33.883,29 Nov 2024 15:13:11.360,6517.477
31,29 Nov 2024 15:54:39.319,29 Nov 2024 16:49:12.761,3273.442
32,29 Nov 2024 17:32:15.015,29 Nov 2024 18:28:18.786,3363.771
33,29 Nov 2024 19:06:01.970,29 Nov 2024 20:52:12.305,6370.335
34,29 Nov 2024 21:32:11.997,29 Nov 2024 22:27:32.569,3320.572
35,29 Nov 2024 23:10:37.685,30 Nov 2024 00:05:44.203,3306.518
36,30 Nov 2024 00:46:24.691,30 Nov 2024 02:31:37.489,6312.799
37,30 Nov 2024 03:09:27.874,30 Nov 2024 04:05:47.839,3379.965
38,30 Nov 2024 04:48:58.103,30 Nov 2024 05:43:43.453,3285.349
39,30 Nov 2024 06:25:28.116,30 Nov 2024 08:12:41.856,6433.739
40,30 Nov 2024 08:45:27.293,30 Nov 2024 09:44:11.788,3524.495
41,30 Nov 2024 10:27:00.875,30 Nov 2024 11:00:00.000,1979.125

"Min Duration",41,30 Nov 2024 10:27:00.875,30 Nov 2024 11:00:00.000,1979.125
"Max Duration",5,27 Nov 2024 18:46:04.236,27 Nov 2024 20:39:49.028,6824.792
"Mean Duration",,,,4066.473
"Total Duration",,,,166725.383


"Access","Start Time (UTCG)","Stop Time (UTCG)","Duration (sec)"
1,27 Nov 2024 11:05:04.873,27 Nov 2024 12:55:16.736,6611.862
2,27 Nov 2024 13:33:44.079,27 Nov 2024 14:28:21.639,3277.561
3,27 Nov 2024 15:10:52.378,27 Nov 2024 16:05:03.158,3250.780
4,27 Nov 2024 16:45:05.108,27 Nov 2024 18:37:33.297,6748.188
5,27 Nov 2024 19:11:39.872,27 Nov 2024 20:07:05.357,3325.484
6,27 Nov 2024 20:49:27.765,27 Nov 2024 21:43:09.175,3221.410
7,27 Nov 2024 22:24:18.440,27 Nov 2024 23:28:31.646,3853.206
8,27 Nov 2024 23:32:00.007,28 Nov 2024 00:20:58.236,2938.229
9,28 Nov 2024 00:49:24.559,28 Nov 2024 01:46:02.404,3397.845
10,28 Nov 2024 02:27:53.535,28 Nov 2024 03:21:33.410,3219.875
11,28 Nov 2024 04:03:18.038,28 Nov 2024 05:00:05.401,3407.364
12,28 Nov 2024 05:27:45.551,28 Nov 2024 06:13:51.683,2766.132
13,28 Nov 2024 06:24:22.905,28 Nov 2024 07:25:21.309,3658.404
14,28 Nov 2024 08:06:25.397,28 Nov 2024 08:59:57.881,3212.484
15,28 Nov 2024 09:42:11.055,28 Nov 2024 10:37:17.221,3306.166
16,28 Nov 2024 11:10:59.644,28 Nov 2024 13:04:53.435,6833.791
17,28 Nov 2024 13:44:48.868,28 Nov 2024 14:38:37.273,3228.405
18,28 Nov 2024 15:20:52.680,28 Nov 2024 16:15:09.727,3257.047
19,28 Nov 2024 16:52:53.215,28 Nov 2024 18:45:42.140,6768.925
20,28 Nov 2024 19:23:14.125,28 Nov 2024 20:17:19.425,3245.300
21,28 Nov 2024 20:59:38.491,28 Nov 2024 21:53:15.549,3217.058
22,28 Nov 2024 22:32:49.868,29 Nov 2024 00:26:55.748,6845.880
23,29 Nov 2024 01:01:32.779,29 Nov 2024 01:56:13.837,3281.057
24,29 Nov 2024 02:38:13.470,29 Nov 2024 03:31:41.198,3207.727
25,29 Nov 2024 04:12:25.598,29 Nov 2024 05:10:49.941,3504.343
26,29 Nov 2024 05:26:59.750,29 Nov 2024 06:12:29.124,2729.374
27,29 Nov 2024 06:39:35.257,29 Nov 2024 07:35:22.886,3347.629
28,29 Nov 2024 08:16:56.044,29 Nov 2024 09:10:06.521,3190.477
29,29 Nov 2024 09:51:37.413,29 Nov 2024 10:47:20.309,3342.896
30,29 Nov 2024 11:14:01.734,29 Nov 2024 11:58:30.112,2668.378
31,29 Nov 2024 12:17:22.443,29 Nov 2024 13:14:41.601,3439.158
32,29 Nov 2024 13:55:28.631,29 Nov 2024 14:48:46.947,3198.316
33,29 Nov 2024 15:30:35.783,29 Nov 2024 16:25:06.969,3271.186
34,29 Nov 2024 16:59:07.339,29 Nov 2024 18:54:47.299,6939.960
35,29 Nov 2024 19:34:09.093,29 Nov 2024 20:27:28.196,3199.103
36,29 Nov 2024 21:09:33.230,29 Nov 2024 22:03:13.134,3219.905
37,29 Nov 2024 22:40:18.705,30 Nov 2024 00:35:02.934,6884.229
38,30 Nov 2024 01:12:41.294,30 Nov 2024 02:06:21.217,3219.923
39,30 Nov 2024 02:48:18.393,30 Nov 2024 03:41:41.543,3203.150
40,30 Nov 2024 04:20:55.285,30 Nov 2024 06:17:39.766,7004.481
41,30 Nov 2024 06:51:18.914,30 Nov 2024 07:45:23.806,3244.892
42,30 Nov 2024 08:27:10.455,30 Nov 2024 09:20:08.414,3177.959
43,30 Nov 2024 10:00:35.328,30 Nov 2024 10:57:05.680,3390.352

"Min Duration",30,29 Nov 2024 11:14:01.734,29 Nov 2024 11:58:30.112,2668.378
"Max Duration",40,30 Nov 2024 04:20:55.285,30 Nov 2024 06:17:39.766,7004.481
"Mean Duration",,,,3912.928
"Total Duration",,,,168255.889


"Access","Start Time (UTCG)","Stop Time (UTCG)","Duration (sec)"
1,27 Nov 2024 11:00:00.000,27 Nov 2024 11:43:11.071,2591.071
2,27 Nov 2024 12:20:28.892,27 Nov 2024 13:15:00.815,3271.923
3,27 Nov 2024 13:57:25.287,27 Nov 2024 14:51:15.605,3230.318
4,27 Nov 2024 15:31:27.627,27 Nov 2024 17:24:19.774,6772.146
5,27 Nov 2024 17:58:14.282,27 Nov 2024 18:53:41.382,3327.100
6,27 Nov 2024 19:35:55.830,27 Nov 2024 20:29:41.140,3225.310
7,27 Nov 2024 21:10:56.588,27 Nov 2024 22:11:27.420,3630.832
8,27 Nov 2024 22:25:41.840,27 Nov 2024 23:09:51.541,2649.701
9,27 Nov 2024 23:34:46.640,28 Nov 2024 00:32:32.844,3466.203
10,28 Nov 2024 01:14:21.476,28 Nov 2024 02:08:04.513,3223.038
11,28 Nov 2024 02:50:09.442,28 Nov 2024 03:47:01.466,3412.024
12,28 Nov 2024 04:15:27.755,28 Nov 2024 06:11:24.909,6957.154
13,28 Nov 2024 06:52:37.727,28 Nov 2024 07:46:32.912,3235.185
14,28 Nov 2024 08:28:58.509,28 Nov 2024 09:24:32.930,3334.421
15,28 Nov 2024 09:59:45.639,28 Nov 2024 11:50:46.772,6661.133
16,28 Nov 2024 12:30:40.729,28 Nov 2024 13:25:01.119,3260.390
17,28 Nov 2024 14:07:42.678,28 Nov 2024 15:02:22.826,3280.148
18,28 Nov 2024 15:41:09.557,28 Nov 2024 17:30:22.290,6552.734
19,28 Nov 2024 18:08:32.580,28 Nov 2024 19:03:31.547,3298.966
20,28 Nov 2024 19:46:12.919,28 Nov 2024 20:40:33.000,3260.081
21,28 Nov 2024 21:21:04.587,28 Nov 2024 23:11:51.525,6646.937
22,28 Nov 2024 23:45:40.668,29 Nov 2024 00:42:05.932,3385.264
23,29 Nov 2024 01:24:38.042,29 Nov 2024 02:18:42.265,3244.223
24,29 Nov 2024 03:00:28.511,29 Nov 2024 04:04:39.982,3851.472
25,29 Nov 2024 04:12:39.684,29 Nov 2024 04:56:07.171,2607.487
26,29 Nov 2024 05:21:51.290,29 Nov 2024 06:20:40.713,3529.423
27,29 Nov 2024 07:02:53.847,29 Nov 2024 07:57:01.048,3247.201
28,29 Nov 2024 08:39:21.516,29 Nov 2024 09:37:29.478,3487.962
29,29 Nov 2024 10:06:16.743,29 Nov 2024 11:59:28.222,6791.479
30,29 Nov 2024 12:40:58.108,29 Nov 2024 13:35:17.555,3259.447
31,29 Nov 2024 14:18:06.962,29 Nov 2024 15:14:14.344,3367.382
32,29 Nov 2024 15:50:24.399,29 Nov 2024 17:38:17.935,6473.536
33,29 Nov 2024 18:18:53.713,29 Nov 2024 19:13:39.077,3285.363
34,29 Nov 2024 19:56:36.822,29 Nov 2024 20:51:54.334,3317.513
35,29 Nov 2024 21:31:13.345,29 Nov 2024 23:17:49.868,6396.523
36,29 Nov 2024 23:56:18.349,30 Nov 2024 00:52:00.063,3341.713
37,30 Nov 2024 01:35:01.219,30 Nov 2024 02:29:42.077,3280.858
38,30 Nov 2024 03:10:55.433,30 Nov 2024 04:58:03.150,6427.717
39,30 Nov 2024 05:33:18.248,30 Nov 2024 06:30:23.008,3424.759
40,30 Nov 2024 07:13:16.249,30 Nov 2024 08:07:47.597,3271.348
41,30 Nov 2024 08:49:53.639,30 Nov 2024 10:43:31.005,6817.366

"Min Duration",1,27 Nov 2024 11:00:00.000,27 Nov 2024 11:43:11.071,2591.071
"Max Duration",12,28 Nov 2024 04:15:27.755,28 Nov 2024 06:11:24.909,6957.154
"Mean Duration",,,,4099.874
"Total Duration",,,,168094.852


"Access","Start Time (UTCG)","Stop Time (UTCG)","Duration (sec)"
1,27 Nov 2024 11:08:46.573,27 Nov 2024 12:14:17.205,3930.632
2,27 Nov 2024 13:14:26.922,27 Nov 2024 14:24:31.945,4205.022
3,27 Nov 2024 15:07:41.372,27 Nov 2024 16:03:06.337,3324.965
4,27 Nov 2024 16:46:34.369,27 Nov 2024 17:45:32.860,3538.491
5,27 Nov 2024 18:24:06.009,27 Nov 2024 20:02:44.336,5918.328
6,27 Nov 2024 20:45:07.576,27 Nov 2024 21:40:50.129,3342.553
7,27 Nov 2024 22:24:42.284,27 Nov 2024 23:21:36.650,3414.366
8,28 Nov 2024 00:02:18.253,28 Nov 2024 01:41:22.308,5944.054
9,28 Nov 2024 02:22:48.290,28 Nov 2024 03:19:04.310,3376.019
10,28 Nov 2024 04:02:37.779,28 Nov 2024 04:58:31.785,3354.006
11,28 Nov 2024 05:40:11.601,28 Nov 2024 07:20:44.803,6033.202
12,28 Nov 2024 07:59:00.610,28 Nov 2024 08:57:05.238,3484.628
13,28 Nov 2024 09:40:42.032,28 Nov 2024 10:35:49.172,3307.139
14,28 Nov 2024 11:18:31.727,28 Nov 2024 13:01:11.404,6159.677
15,28 Nov 2024 13:35:41.126,28 Nov 2024 14:35:31.808,3590.682
16,28 Nov 2024 15:18:40.374,28 Nov 2024 16:13:41.823,3301.449
17,28 Nov 2024 16:56:32.332,28 Nov 2024 17:58:22.874,3710.541
18,28 Nov 2024 18:27:59.985,28 Nov 2024 20:13:55.122,6355.137
19,28 Nov 2024 20:56:32.741,28 Nov 2024 21:51:27.275,3294.534
20,28 Nov 2024 22:34:52.507,28 Nov 2024 23:33:00.074,3487.566
21,29 Nov 2024 00:09:19.675,29 Nov 2024 01:52:37.225,6197.550
22,29 Nov 2024 02:34:29.042,29 Nov 2024 03:29:42.312,3313.270
23,29 Nov 2024 04:12:56.500,29 Nov 2024 05:09:16.067,3379.567
24,29 Nov 2024 05:48:52.416,29 Nov 2024 07:31:57.961,6185.545
25,29 Nov 2024 08:11:48.982,29 Nov 2024 09:07:47.132,3358.150
26,29 Nov 2024 09:51:13.830,29 Nov 2024 10:46:24.261,3310.430
27,29 Nov 2024 11:27:42.382,29 Nov 2024 13:11:34.535,6232.153
28,29 Nov 2024 13:49:28.139,29 Nov 2024 14:46:15.481,3407.342
29,29 Nov 2024 15:29:19.819,29 Nov 2024 16:24:11.688,3291.869
30,29 Nov 2024 17:06:07.370,29 Nov 2024 18:57:34.690,6687.320
31,29 Nov 2024 19:24:21.585,29 Nov 2024 20:24:42.614,3621.029
32,29 Nov 2024 21:07:30.327,29 Nov 2024 22:01:56.918,3266.591
33,29 Nov 2024 22:44:42.987,29 Nov 2024 23:45:39.479,3656.491
34,30 Nov 2024 00:09:50.245,30 Nov 2024 00:48:15.518,2305.273
35,30 Nov 2024 00:57:21.615,30 Nov 2024 02:03:24.977,3963.361
36,30 Nov 2024 02:45:36.601,30 Nov 2024 03:40:12.039,3275.439
37,30 Nov 2024 04:22:58.593,30 Nov 2024 05:20:08.913,3430.320
38,30 Nov 2024 05:55:48.452,30 Nov 2024 07:42:36.461,6408.009
39,30 Nov 2024 08:23:31.461,30 Nov 2024 09:18:18.790,3287.328
40,30 Nov 2024 10:01:28.652,30 Nov 2024 10:56:58.710,3330.058

"Min Duration",34,30 Nov 2024 00:09:50.245,30 Nov 2024 00:48:15.518,2305.273
"Max Duration",30,29 Nov 2024 17:06:07.370,29 Nov 2024 18:57:34.690,6687.320
"Mean Duration",,,,4124.502
"Total Duration",,,,164980.091


"Access","Start Time (UTCG)","Stop Time (UTCG)","Duration (sec)"
1,27 Nov 2024 11:00:00.000,27 Nov 2024 11:40:22.194,2422.194
2,27 Nov 2024 12:12:07.114,27 Nov 2024 14:05:58.817,6831.703
3,27 Nov 2024 14:46:20.347,27 Nov 2024 15:40:27.440,3247.093
4,27 Nov 2024 16:23:02.398,27 Nov 2024 17:17:50.019,3287.622
5,27 Nov 2024 17:55:28.041,27 Nov 2024 19:45:06.141,6578.099
6,27 Nov 2024 20:24:29.624,27 Nov 2024 21:18:54.631,3265.007
7,27 Nov 2024 22:01:35.426,27 Nov 2024 22:56:07.143,3271.717
8,27 Nov 2024 23:35:31.499,28 Nov 2024 01:25:58.188,6626.688
9,28 Nov 2024 02:01:50.788,28 Nov 2024 02:57:33.521,3342.733
10,28 Nov 2024 03:40:05.977,28 Nov 2024 04:34:09.436,3243.459
11,28 Nov 2024 05:15:32.320,28 Nov 2024 07:07:53.635,6741.314
12,28 Nov 2024 07:39:06.220,28 Nov 2024 08:36:01.316,3415.096
13,28 Nov 2024 09:18:29.114,28 Nov 2024 10:12:31.422,3242.308
14,28 Nov 2024 10:54:25.972,28 Nov 2024 11:54:40.293,3614.320
15,28 Nov 2024 12:15:11.195,28 Nov 2024 12:58:34.539,2603.344
16,28 Nov 2024 13:11:58.621,28 Nov 2024 14:14:53.911,3775.291
17,28 Nov 2024 14:56:35.722,28 Nov 2024 15:50:46.620,3250.897
18,28 Nov 2024 16:33:25.965,28 Nov 2024 17:29:57.016,3391.051
19,28 Nov 2024 18:03:50.391,28 Nov 2024 19:53:29.847,6579.456
20,28 Nov 2024 20:34:45.904,28 Nov 2024 21:29:08.083,3262.179
21,28 Nov 2024 22:11:58.827,28 Nov 2024 23:07:45.073,3346.246
22,28 Nov 2024 23:45:13.955,29 Nov 2024 01:32:57.762,6463.807
23,29 Nov 2024 02:12:16.402,29 Nov 2024 03:07:31.260,3314.858
24,29 Nov 2024 03:50:28.911,29 Nov 2024 04:45:14.447,3285.536
25,29 Nov 2024 05:25:53.163,29 Nov 2024 07:12:24.094,6390.932
26,29 Nov 2024 07:49:52.185,29 Nov 2024 08:45:51.171,3358.987
27,29 Nov 2024 09:28:51.007,29 Nov 2024 10:23:26.432,3275.424
28,29 Nov 2024 11:04:54.514,29 Nov 2024 12:54:59.666,6605.152
29,29 Nov 2024 13:25:33.431,29 Nov 2024 14:24:22.183,3528.752
30,29 Nov 2024 15:06:57.329,29 Nov 2024 16:01:22.898,3265.569
31,29 Nov 2024 16:43:58.708,29 Nov 2024 17:44:33.267,3634.559
32,29 Nov 2024 18:08:23.296,29 Nov 2024 18:46:00.291,2256.995
33,29 Nov 2024 18:57:31.435,29 Nov 2024 20:02:41.722,3910.286
34,29 Nov 2024 20:45:07.835,29 Nov 2024 21:39:38.147,3270.312
35,29 Nov 2024 22:22:31.065,29 Nov 2024 23:20:35.516,3484.451
36,29 Nov 2024 23:54:18.053,30 Nov 2024 01:41:26.028,6427.975
37,30 Nov 2024 02:22:43.624,30 Nov 2024 03:17:45.945,3302.321
38,30 Nov 2024 04:00:59.929,30 Nov 2024 04:56:56.800,3356.870
39,30 Nov 2024 05:36:24.086,30 Nov 2024 07:19:53.685,6209.599
40,30 Nov 2024 08:00:29.494,30 Nov 2024 08:55:59.701,3330.207
41,30 Nov 2024 09:39:20.587,30 Nov 2024 10:34:49.996,3329.408

"Min Duration",32,29 Nov 2024 18:08:23.296,29 Nov 2024 18:46:00.291,2256.995
"Max Duration",2,27 Nov 2024 12:12:07.114,27 Nov 2024 14:05:58.817,6831.703
"Mean Duration",,,,4081.459
"Total Duration",,,,167339.815


"Access","Start Time (UTCG)","Stop Time (UTCG)","Duration (sec)"
1,27 Nov 2024 11:00:00.000,27 Nov 2024 11:14:57.576,897.576
2,27 Nov 2024 12:05:15.592,27 Nov 2024 13:13:20.790,4085.198
3,27 Nov 2024 14:00:20.807,27 Nov 2024 14:59:30.144,3549.337
4,27 Nov 2024 15:46:11.566,27 Nov 2024 16:47:55.091,3703.525
5,27 Nov 2024 17:36:52.301,27 Nov 2024 18:47:35.045,4242.745
6,27 Nov 2024 19:35:42.708,27 Nov 2024 20:35:52.964,3610.257
7,27 Nov 2024 21:23:02.135,27 Nov 2024 22:23:41.872,3639.737
8,27 Nov 2024 23:12:23.890,28 Nov 2024 00:23:01.774,4237.884
9,28 Nov 2024 01:11:23.112,28 Nov 2024 02:12:33.617,3670.505
10,28 Nov 2024 02:59:19.238,28 Nov 2024 03:58:51.848,3572.610
11,28 Nov 2024 04:46:26.210,28 Nov 2024 05:54:58.043,4111.833
12,28 Nov 2024 06:44:50.957,28 Nov 2024 07:48:26.877,3815.920
13,28 Nov 2024 08:35:49.029,28 Nov 2024 09:35:08.413,3559.385
14,28 Nov 2024 10:22:55.125,28 Nov 2024 11:29:38.735,4003.611
15,28 Nov 2024 12:19:45.826,28 Nov 2024 13:24:56.006,3910.180
16,28 Nov 2024 14:12:02.898,28 Nov 2024 15:11:17.188,3554.290
17,28 Nov 2024 15:58:23.714,28 Nov 2024 17:01:51.725,3808.011
18,28 Nov 2024 17:51:39.163,28 Nov 2024 18:59:45.096,4085.933
19,28 Nov 2024 19:47:45.951,28 Nov 2024 20:47:34.571,3588.620
20,28 Nov 2024 21:35:06.174,28 Nov 2024 22:37:15.961,3729.786
21,28 Nov 2024 23:26:49.171,29 Nov 2024 00:35:38.119,4128.948
22,29 Nov 2024 01:23:39.598,29 Nov 2024 02:24:04.741,3625.143
23,29 Nov 2024 03:11:07.902,29 Nov 2024 04:11:39.304,3631.402
24,29 Nov 2024 04:59:59.893,29 Nov 2024 06:08:40.255,4120.362
25,29 Nov 2024 06:57:58.685,29 Nov 2024 08:00:01.465,3722.780
26,29 Nov 2024 08:47:38.340,29 Nov 2024 09:47:40.908,3602.569
27,29 Nov 2024 10:36:06.831,29 Nov 2024 11:43:45.802,4058.971
28,29 Nov 2024 12:33:18.797,29 Nov 2024 13:36:30.425,3791.628
29,29 Nov 2024 14:23:47.121,29 Nov 2024 15:23:22.317,3575.196
30,29 Nov 2024 16:10:58.136,29 Nov 2024 17:15:57.164,3899.028
31,29 Nov 2024 18:05:59.161,29 Nov 2024 19:11:40.205,3941.044
32,29 Nov 2024 19:59:42.851,29 Nov 2024 20:59:32.219,3589.369
33,29 Nov 2024 21:47:29.559,29 Nov 2024 22:51:09.683,3820.124
34,29 Nov 2024 23:41:08.515,30 Nov 2024 00:47:47.727,3999.212
35,30 Nov 2024 01:35:41.990,30 Nov 2024 02:35:47.790,3605.799
36,30 Nov 2024 03:23:10.607,30 Nov 2024 04:24:50.074,3699.467
37,30 Nov 2024 05:13:53.750,30 Nov 2024 06:21:37.471,4063.721
38,30 Nov 2024 07:10:34.533,30 Nov 2024 08:11:44.511,3669.978
39,30 Nov 2024 08:59:38.468,30 Nov 2024 10:00:37.014,3658.546
40,30 Nov 2024 10:49:41.906,30 Nov 2024 11:00:00.000,618.094

"Min Duration",40,30 Nov 2024 10:49:41.906,30 Nov 2024 11:00:00.000,618.094
"Max Duration",5,27 Nov 2024 17:36:52.301,27 Nov 2024 18:47:35.045,4242.745
"Mean Duration",,,,3654.958
"Total Duration",,,,146198.322


"Access","Start Time (UTCG)","Stop Time (UTCG)","Duration (sec)"
1,27 Nov 2024 11:11:29.769,27 Nov 2024 12:13:51.468,3741.699
2,27 Nov 2024 13:03:27.369,27 Nov 2024 14:05:45.979,3738.611
3,27 Nov 2024 14:55:22.996,27 Nov 2024 15:57:27.601,3724.605
4,27 Nov 2024 16:46:57.979,27 Nov 2024 17:49:11.323,3733.344
5,27 Nov 2024 18:38:33.371,27 Nov 2024 19:40:48.446,3735.075
6,27 Nov 2024 20:30:15.899,27 Nov 2024 21:32:20.409,3724.510
7,27 Nov 2024 22:21:55.717,27 Nov 2024 23:24:09.761,3734.044
8,28 Nov 2024 00:13:45.213,28 Nov 2024 01:16:07.209,3741.996
9,28 Nov 2024 02:05:44.555,28 Nov 2024 03:07:53.333,3728.778
10,28 Nov 2024 03:57:28.590,28 Nov 2024 04:59:36.956,3728.366
11,28 Nov 2024 05:49:01.327,28 Nov 2024 06:51:17.072,3735.745
12,28 Nov 2024 07:40:40.861,28 Nov 2024 08:42:48.531,3727.669
13,28 Nov 2024 09:32:22.206,28 Nov 2024 10:34:30.421,3728.215
14,28 Nov 2024 11:24:06.264,28 Nov 2024 12:26:27.008,3740.743
15,28 Nov 2024 13:16:03.148,28 Nov 2024 14:18:17.539,3734.391
16,28 Nov 2024 15:07:55.686,28 Nov 2024 16:10:02.037,3726.350
17,28 Nov 2024 16:59:31.197,28 Nov 2024 18:01:44.986,3733.789
18,28 Nov 2024 18:51:06.782,28 Nov 2024 19:53:18.178,3731.396
19,28 Nov 2024 20:42:48.151,28 Nov 2024 21:44:53.620,3725.469
20,28 Nov 2024 22:34:29.796,28 Nov 2024 23:36:46.353,3736.557
21,29 Nov 2024 00:26:21.613,29 Nov 2024 01:28:40.623,3739.010
22,29 Nov 2024 02:18:18.911,29 Nov 2024 03:20:26.388,3727.477
23,29 Nov 2024 04:10:00.640,29 Nov 2024 05:12:11.298,3730.658
24,29 Nov 2024 06:01:34.297,29 Nov 2024 07:03:48.670,3734.373
25,29 Nov 2024 07:53:14.106,29 Nov 2024 08:55:19.945,3725.839
26,29 Nov 2024 09:44:54.754,29 Nov 2024 10:47:05.792,3731.038
27,29 Nov 2024 11:36:41.200,29 Nov 2024 12:39:02.542,3741.343
28,29 Nov 2024 13:28:39.402,29 Nov 2024 14:30:50.781,3731.380
29,29 Nov 2024 15:20:28.225,29 Nov 2024 16:22:35.614,3727.389
30,29 Nov 2024 17:12:02.566,29 Nov 2024 18:14:18.243,3735.678
31,29 Nov 2024 19:03:40.602,29 Nov 2024 20:05:49.821,3729.218
32,29 Nov 2024 20:55:20.996,29 Nov 2024 21:57:26.821,3725.825
33,29 Nov 2024 22:47:02.343,29 Nov 2024 23:49:22.523,3740.180
34,30 Nov 2024 00:38:58.168,30 Nov 2024 01:41:15.652,3737.484
35,30 Nov 2024 02:30:53.704,30 Nov 2024 03:32:59.252,3725.548
36,30 Nov 2024 04:22:30.781,30 Nov 2024 05:24:44.809,3734.028
37,30 Nov 2024 06:14:07.116,30 Nov 2024 07:16:21.906,3734.790
38,30 Nov 2024 08:05:48.496,30 Nov 2024 09:07:51.922,3723.426
39,30 Nov 2024 09:57:25.880,30 Nov 2024 10:59:40.526,3734.646

"Min Duration",38,30 Nov 2024 08:05:48.496,30 Nov 2024 09:07:51.922,3723.426
"Max Duration",8,28 Nov 2024 00:13:45.213,28 Nov 2024 01:16:07.209,3741.996
"Mean Duration",,,,3732.325
"Total Duration",,,,145560.682


"Access","Start Time (UTCG)","Stop Time (UTCG)","Duration (sec)"
1,27 Nov 2024 11:00:00.000,27 Nov 2024 11:05:25.047,325.047
2,27 Nov 2024 11:53:13.084,27 Nov 2024 13:02:46.771,4173.687
3,27 Nov 2024 13:51:56.792,27 Nov 2024 14:54:32.414,3755.622
4,27 Nov 2024 15:41:41.685,27 Nov 2024 16:41:04.822,3563.137
5,27 Nov 2024 17:28:56.145,27 Nov 2024 18:36:38.405,4062.260
6,27 Nov 2024 19:26:51.637,27 Nov 2024 20:31:08.768,3857.131
7,27 Nov 2024 21:18:18.946,27 Nov 2024 22:17:31.567,3552.622
8,27 Nov 2024 23:04:45.756,28 Nov 2024 00:09:26.072,3880.316
9,28 Nov 2024 00:59:16.557,28 Nov 2024 02:06:19.080,4022.523
10,28 Nov 2024 02:53:56.083,28 Nov 2024 03:53:29.370,3573.287
11,28 Nov 2024 04:40:56.884,28 Nov 2024 05:43:41.671,3764.787
12,28 Nov 2024 06:33:38.694,28 Nov 2024 07:42:10.687,4111.992
13,28 Nov 2024 08:30:10.756,28 Nov 2024 09:30:13.356,3602.600
14,28 Nov 2024 10:17:22.418,28 Nov 2024 11:18:29.105,3666.687
15,28 Nov 2024 12:07:05.263,28 Nov 2024 13:16:01.051,4135.788
16,28 Nov 2024 14:04:42.534,28 Nov 2024 15:06:04.651,3682.117
17,28 Nov 2024 15:53:31.014,28 Nov 2024 16:53:44.437,3613.424
18,28 Nov 2024 17:42:20.031,28 Nov 2024 18:50:37.736,4097.706
19,28 Nov 2024 19:40:10.676,28 Nov 2024 20:42:42.575,3751.899
20,28 Nov 2024 21:30:03.866,28 Nov 2024 22:29:47.058,3583.192
21,28 Nov 2024 23:17:32.803,29 Nov 2024 00:23:35.065,3962.262
22,29 Nov 2024 01:13:20.910,29 Nov 2024 02:18:03.843,3882.933
23,29 Nov 2024 03:05:47.636,29 Nov 2024 04:05:29.978,3582.342
24,29 Nov 2024 04:53:26.120,29 Nov 2024 05:57:45.364,3859.244
25,29 Nov 2024 06:48:01.924,29 Nov 2024 07:54:12.423,3970.499
26,29 Nov 2024 08:42:08.479,29 Nov 2024 09:42:02.186,3593.708
27,29 Nov 2024 10:29:32.129,29 Nov 2024 11:31:55.280,3743.150
28,29 Nov 2024 12:21:09.974,29 Nov 2024 13:28:36.494,4046.521
29,29 Nov 2024 14:17:03.969,29 Nov 2024 15:17:47.013,3643.044
30,29 Nov 2024 16:05:32.727,29 Nov 2024 17:06:48.582,3675.856
31,29 Nov 2024 17:56:06.933,29 Nov 2024 19:03:49.597,4062.664
32,29 Nov 2024 19:52:53.298,29 Nov 2024 20:54:22.467,3689.170
33,29 Nov 2024 21:41:57.054,29 Nov 2024 22:42:23.012,3625.959
34,29 Nov 2024 23:30:42.616,30 Nov 2024 00:37:15.568,3992.952
35,30 Nov 2024 01:26:42.350,30 Nov 2024 02:29:47.941,3785.591
36,30 Nov 2024 03:17:42.266,30 Nov 2024 04:17:49.416,3607.150
37,30 Nov 2024 05:06:17.422,30 Nov 2024 06:11:42.067,3924.645
38,30 Nov 2024 07:01:49.073,30 Nov 2024 08:06:05.584,3856.510
39,30 Nov 2024 08:54:03.981,30 Nov 2024 09:54:06.156,3602.175
40,30 Nov 2024 10:41:59.459,30 Nov 2024 11:00:00.000,1080.541

"Min Duration",1,27 Nov 2024 11:00:00.000,27 Nov 2024 11:05:25.047,325.047
"Max Duration",2,27 Nov 2024 11:53:13.084,27 Nov 2024 13:02:46.771,4173.687
"Mean Duration",,,,3649.068
"Total Duration",,,,145962.737


"Access","Start Time (UTCG)","Stop Time (UTCG)","Duration (sec)"
1,27 Nov 2024 11:38:27.777,27 Nov 2024 12:39:55.481,3687.703
2,27 Nov 2024 13:28:14.501,27 Nov 2024 14:29:36.561,3682.060
3,27 Nov 2024 15:18:36.664,27 Nov 2024 16:24:09.156,3932.491
4,27 Nov 2024 17:13:33.846,27 Nov 2024 18:15:45.330,3731.483
5,27 Nov 2024 19:03:56.708,27 Nov 2024 20:04:40.240,3643.532
6,27 Nov 2024 20:53:16.889,27 Nov 2024 21:58:20.603,3903.714
7,27 Nov 2024 22:48:11.294,27 Nov 2024 23:51:32.866,3801.572
8,28 Nov 2024 00:39:57.959,28 Nov 2024 01:40:26.026,3628.067
9,28 Nov 2024 02:28:49.331,28 Nov 2024 03:33:00.637,3851.306
10,28 Nov 2024 04:22:45.524,28 Nov 2024 05:27:14.862,3869.338
11,28 Nov 2024 06:15:40.057,28 Nov 2024 07:16:04.153,3624.096
12,28 Nov 2024 08:04:09.416,28 Nov 2024 09:07:05.291,3775.875
13,28 Nov 2024 09:56:43.675,28 Nov 2024 11:02:30.612,3946.937
14,28 Nov 2024 11:51:22.567,28 Nov 2024 12:52:06.417,3643.850
15,28 Nov 2024 13:40:09.945,28 Nov 2024 14:42:05.491,3715.546
16,28 Nov 2024 15:31:17.624,28 Nov 2024 16:37:42.319,3984.694
17,28 Nov 2024 17:26:43.990,28 Nov 2024 18:28:03.254,3679.264
18,28 Nov 2024 19:15:56.198,28 Nov 2024 20:16:52.052,3655.854
19,28 Nov 2024 21:05:34.865,28 Nov 2024 22:12:01.987,3987.122
20,28 Nov 2024 23:01:40.735,29 Nov 2024 00:04:05.091,3744.356
21,29 Nov 2024 00:52:06.926,29 Nov 2024 01:52:30.093,3623.168
22,29 Nov 2024 02:40:51.448,29 Nov 2024 03:46:34.015,3942.567
23,29 Nov 2024 04:36:20.233,29 Nov 2024 05:40:01.584,3821.351
24,29 Nov 2024 06:28:00.510,29 Nov 2024 07:28:02.615,3602.106
25,29 Nov 2024 08:16:00.360,29 Nov 2024 09:20:16.976,3856.616
26,29 Nov 2024 10:10:14.068,29 Nov 2024 11:15:40.402,3926.334
27,29 Nov 2024 12:04:01.051,29 Nov 2024 13:04:07.109,3606.058
28,29 Nov 2024 13:51:57.586,29 Nov 2024 14:54:53.457,3775.872
29,29 Nov 2024 15:44:25.343,29 Nov 2024 16:51:11.689,4006.345
30,29 Nov 2024 17:39:40.635,29 Nov 2024 18:40:07.977,3627.342
31,29 Nov 2024 19:27:44.485,29 Nov 2024 20:29:14.042,3689.556
32,29 Nov 2024 21:18:11.985,29 Nov 2024 22:25:54.279,4062.294
33,29 Nov 2024 23:15:03.198,30 Nov 2024 00:16:21.091,3677.893
34,30 Nov 2024 01:04:01.653,30 Nov 2024 02:04:37.413,3635.760
35,30 Nov 2024 02:53:03.406,30 Nov 2024 04:00:32.373,4048.967
36,30 Nov 2024 04:50:00.750,30 Nov 2024 05:52:30.362,3749.612
37,30 Nov 2024 06:40:04.578,30 Nov 2024 07:39:58.160,3593.582
38,30 Nov 2024 08:27:52.524,30 Nov 2024 09:34:03.345,3970.821
39,30 Nov 2024 10:24:08.858,30 Nov 2024 11:00:00.000,2151.142

"Min Duration",39,30 Nov 2024 10:24:08.858,30 Nov 2024 11:00:00.000,2151.142
"Max Duration",32,29 Nov 2024 21:18:11.985,29 Nov 2024 22:25:54.279,4062.294
"Mean Duration",,,,3739.904
"Total Duration",,,,145856.246


"Access","Start Time (UTCG)","Stop Time (UTCG)","Duration (sec)"
1,27 Nov 2024 11:00:00.000,27 Nov 2024 11:38:35.402,2315.402
2,27 Nov 2024 12:28:03.661,27 Nov 2024 13:29:54.380,3710.720
3,27 Nov 2024 14:18:55.294,27 Nov 2024 15:20:57.188,3721.894
4,27 Nov 2024 16:09:53.103,27 Nov 2024 17:12:11.246,3738.143
5,27 Nov 2024 18:01:29.494,27 Nov 2024 19:03:35.783,3726.290
6,27 Nov 2024 19:53:29.440,27 Nov 2024 20:55:54.939,3745.498
7,27 Nov 2024 21:46:03.574,27 Nov 2024 22:48:46.135,3762.560
8,27 Nov 2024 23:38:30.880,28 Nov 2024 00:40:35.574,3724.695
9,28 Nov 2024 01:29:47.954,28 Nov 2024 02:31:40.816,3712.862
10,28 Nov 2024 03:20:36.031,28 Nov 2024 04:22:47.681,3731.650
11,28 Nov 2024 05:11:53.411,28 Nov 2024 06:14:03.598,3730.187
12,28 Nov 2024 07:03:44.505,28 Nov 2024 08:05:58.401,3733.896
13,28 Nov 2024 08:56:06.253,28 Nov 2024 09:58:46.034,3759.781
14,28 Nov 2024 10:48:44.029,28 Nov 2024 11:51:05.277,3741.248
15,28 Nov 2024 12:40:32.022,28 Nov 2024 13:42:25.363,3713.341
16,28 Nov 2024 14:31:26.194,28 Nov 2024 15:33:28.507,3722.313
17,28 Nov 2024 16:22:25.590,28 Nov 2024 17:24:36.552,3730.962
18,28 Nov 2024 18:14:02.205,28 Nov 2024 19:16:11.635,3729.429
19,28 Nov 2024 20:06:12.967,28 Nov 2024 21:08:43.003,3750.036
20,28 Nov 2024 21:58:49.359,28 Nov 2024 23:01:22.072,3752.714
21,28 Nov 2024 23:51:03.374,29 Nov 2024 00:53:05.381,3722.007
22,29 Nov 2024 01:42:16.809,29 Nov 2024 02:44:12.607,3715.798
23,29 Nov 2024 03:33:07.351,29 Nov 2024 04:35:14.631,3727.280
24,29 Nov 2024 05:24:25.187,29 Nov 2024 06:26:33.785,3728.598
25,29 Nov 2024 07:16:23.211,29 Nov 2024 08:18:43.357,3740.146
26,29 Nov 2024 09:08:52.558,29 Nov 2024 10:11:28.324,3755.766
27,29 Nov 2024 11:01:22.227,29 Nov 2024 12:03:36.746,3734.519
28,29 Nov 2024 12:53:01.392,29 Nov 2024 13:54:56.469,3715.077
29,29 Nov 2024 14:43:55.568,29 Nov 2024 15:45:57.248,3721.680
30,29 Nov 2024 16:34:56.513,29 Nov 2024 17:37:04.191,3727.678
31,29 Nov 2024 18:26:37.625,29 Nov 2024 19:28:50.862,3733.237
32,29 Nov 2024 20:18:56.698,29 Nov 2024 21:21:28.566,3751.867
33,29 Nov 2024 22:11:31.912,29 Nov 2024 23:13:57.893,3745.981
34,30 Nov 2024 00:03:36.038,30 Nov 2024 01:05:36.361,3720.323
35,30 Nov 2024 01:54:45.033,30 Nov 2024 02:56:42.189,3717.156
36,30 Nov 2024 03:45:36.625,30 Nov 2024 04:47:42.013,3725.388
37,30 Nov 2024 05:36:58.540,30 Nov 2024 06:39:07.762,3729.222
38,30 Nov 2024 07:29:03.573,30 Nov 2024 08:31:27.881,3744.308
39,30 Nov 2024 09:21:36.343,30 Nov 2024 10:24:09.198,3752.855

"Min Duration",1,27 Nov 2024 11:00:00.000,27 Nov 2024 11:38:35.402,2315.402
"Max Duration",7,27 Nov 2024 21:46:03.574,27 Nov 2024 22:48:46.135,3762.560
"Mean Duration",,,,3696.475
"Total Duration",,,,144162.509


"Access","Start Time (UTCG)","Stop Time (UTCG)","Duration (sec)"
1,27 Nov 2024 11:05:05.416,27 Nov 2024 11:51:46.085,2800.669
2,27 Nov 2024 12:18:47.702,27 Nov 2024 13:16:23.927,3456.225
3,27 Nov 2024 13:58:13.444,27 Nov 2024 14:52:06.644,3233.200
4,27 Nov 2024 15:34:10.214,27 Nov 2024 16:31:03.681,3413.467
5,27 Nov 2024 17:00:48.826,27 Nov 2024 18:55:16.167,6867.341
6,27 Nov 2024 19:36:34.459,27 Nov 2024 20:30:26.688,3232.229
7,27 Nov 2024 21:13:01.344,27 Nov 2024 22:08:46.026,3344.682
8,27 Nov 2024 22:43:18.860,28 Nov 2024 00:34:24.309,6665.449
9,28 Nov 2024 01:14:31.432,28 Nov 2024 02:09:00.158,3268.726
10,28 Nov 2024 02:51:38.470,28 Nov 2024 03:46:27.609,3289.139
11,28 Nov 2024 04:25:31.266,28 Nov 2024 06:14:19.952,6528.686
12,28 Nov 2024 06:52:19.956,28 Nov 2024 07:47:22.752,3302.795
13,28 Nov 2024 08:30:14.355,28 Nov 2024 09:24:33.937,3259.581
14,28 Nov 2024 10:05:06.834,28 Nov 2024 11:54:42.997,6576.163
15,28 Nov 2024 12:29:34.915,28 Nov 2024 13:26:00.277,3385.362
16,28 Nov 2024 14:08:30.856,28 Nov 2024 15:02:45.435,3254.580
17,28 Nov 2024 15:44:32.981,28 Nov 2024 16:47:17.498,3764.516
18,28 Nov 2024 17:00:31.933,28 Nov 2024 17:41:34.933,2463.000
19,28 Nov 2024 18:04:49.783,28 Nov 2024 19:04:29.641,3579.858
20,28 Nov 2024 19:46:51.466,28 Nov 2024 20:40:56.500,3245.034
21,28 Nov 2024 21:23:26.460,28 Nov 2024 22:22:12.243,3525.783
22,28 Nov 2024 22:49:03.323,29 Nov 2024 00:43:13.958,6850.634
23,29 Nov 2024 01:24:49.171,29 Nov 2024 02:19:18.044,3268.873
24,29 Nov 2024 03:02:04.550,29 Nov 2024 03:58:17.766,3373.216
25,29 Nov 2024 04:35:08.251,29 Nov 2024 06:22:05.645,6417.394
26,29 Nov 2024 07:02:43.404,29 Nov 2024 07:57:30.723,3287.319
27,29 Nov 2024 08:40:39.828,29 Nov 2024 09:36:01.995,3322.167
28,29 Nov 2024 10:15:18.482,29 Nov 2024 12:01:13.151,6354.669
29,29 Nov 2024 12:40:10.419,29 Nov 2024 13:35:56.760,3346.341
30,29 Nov 2024 14:18:55.096,29 Nov 2024 15:13:45.943,3290.847
31,29 Nov 2024 15:55:05.390,29 Nov 2024 17:42:06.251,6420.861
32,29 Nov 2024 18:16:43.580,29 Nov 2024 19:14:11.159,3447.580
33,29 Nov 2024 19:57:15.159,29 Nov 2024 20:51:45.805,3270.646
34,29 Nov 2024 21:34:02.028,29 Nov 2024 23:24:39.541,6637.513
35,29 Nov 2024 23:52:06.734,30 Nov 2024 00:52:39.990,3633.257
36,30 Nov 2024 01:35:12.595,30 Nov 2024 02:29:52.387,3279.791
37,30 Nov 2024 03:12:40.142,30 Nov 2024 04:11:38.926,3538.783
38,30 Nov 2024 04:43:45.701,30 Nov 2024 06:30:59.440,6433.740
39,30 Nov 2024 07:13:10.278,30 Nov 2024 08:07:55.694,3285.416
40,30 Nov 2024 08:51:14.459,30 Nov 2024 09:48:27.682,3433.223
41,30 Nov 2024 10:25:31.427,30 Nov 2024 11:00:00.000,2068.573

"Min Duration",41,30 Nov 2024 10:25:31.427,30 Nov 2024 11:00:00.000,2068.573
"Max Duration",5,27 Nov 2024 17:00:48.826,27 Nov 2024 18:55:16.167,6867.341
"Mean Duration",,,,4083.349
"Total Duration",,,,167417.328


"Access","Start Time (UTCG)","Stop Time (UTCG)","Duration (sec)"
1,27 Nov 2024 11:02:21.300,27 Nov 2024 12:02:58.732,3637.432
2,27 Nov 2024 12:51:30.317,27 Nov 2024 13:58:42.320,4032.004
3,27 Nov 2024 14:48:25.488,27 Nov 2024 15:50:56.380,3750.892
4,27 Nov 2024 16:38:43.999,27 Nov 2024 17:38:47.918,3603.918
5,27 Nov 2024 18:26:51.471,27 Nov 2024 19:32:58.628,3967.157
6,27 Nov 2024 20:22:46.223,27 Nov 2024 21:26:52.483,3846.260
7,27 Nov 2024 22:14:37.907,27 Nov 2024 23:14:22.232,3584.325
8,28 Nov 2024 00:02:05.346,28 Nov 2024 01:06:25.981,3860.635
9,28 Nov 2024 01:56:30.259,28 Nov 2024 03:02:41.061,3970.802
10,28 Nov 2024 03:50:49.945,28 Nov 2024 04:50:40.085,3590.140
11,28 Nov 2024 05:38:13.433,28 Nov 2024 06:40:58.966,3765.533
12,28 Nov 2024 07:30:21.593,28 Nov 2024 08:38:07.156,4065.563
13,28 Nov 2024 09:26:25.009,28 Nov 2024 10:26:43.254,3618.245
14,28 Nov 2024 11:14:05.175,28 Nov 2024 12:15:15.277,3670.102
15,28 Nov 2024 13:04:02.139,28 Nov 2024 14:12:48.708,4126.569
16,28 Nov 2024 15:01:55.125,28 Nov 2024 16:03:09.560,3674.435
17,28 Nov 2024 16:50:34.396,28 Nov 2024 17:50:48.965,3614.569
18,28 Nov 2024 18:38:54.649,28 Nov 2024 19:47:10.356,4095.706
